var data = {
"type": "FeatureCollection",
"name": "MigrationIL",
"crs": { "type": "name", "properties": { "name": "urn:ogc:def:crs:OGC:1.3:CRS84" } },
"features": [
{ "type": "Feature", "properties": { "State_A": "Illinois", "County_A": "Cook County", "GEOID_A": "17031", "State_B": "Illinois", "County_B": "Logan County", "GEOID_B": "17107", "Flow_B2A": 37, "Flow_A2B": 950, "Net_B2A": -913, "A_LONG": -87.8169, "A_LATT": 41.84, "B_LONG": -89.3677, "B_LATT": 40.1247 }, "geometry": { "type": "Point", "coordinates": [ -87.8169, 41.84 ] } },
{ "type": "Feature", "properties": { "State_A": "Illinois", "County_A": "Cook County", "GEOID_A": "17031", "State_B": "Illinois", "County_B": "McDonough County", "GEOID_B": "17109", "Flow_B2A": 105, "Flow_A2B": 943, "Net_B2A": -838, "A_LONG": -87.8169, "A_LATT": 41.84, "B_LONG": -90.6778, "B_LATT": 40.4567 }, "geometry": { "type": "Point", "coordinates": [ -87.8169, 41.84 ] } },
{ "type": "Feature", "properties": { "State_A": "Illinois", "County_A": "Cook County", "GEOID_A": "17031", "State_B": "Illinois", "County_B": "Coles County", "GEOID_B": "17029", "Flow_B2A": 110, "Flow_A2B": 946, "Net_B2A": -836, "A_LONG": -87.8169, "A_LATT": 41.84, "B_LONG": -88.2215, "B_LATT": 39.5208 }, "geometry": { "type": "Point", "coordinates": [ -87.8169, 41.84 ] } },
{ "type": "Feature", "properties": { "State_A": "Illinois", "County_A": "Cook County", "GEOID_A": "17031", "State_B": "Illinois", "County_B": "Rock Island County", "GEOID_B": "17161", "Flow_B2A": 256, "Flow_A2B": 854, "Net_B2A": -598, "A_LONG": -87.8169, "A_LATT": 41.84, "B_LONG": -90.5676, "B_LATT": 41.4673 }, "geometry": { "type": "Point", "coordinates": [ -87.8169, 41.84 ] } },
{ "type": "Feature", "properties": { "State_A": "Illinois", "County_A": "Cook County", "GEOID_A": "17031", "State_B": "Illinois", "County_B": "De Witt County", "GEOID_B": "17039", "Flow_B2A": 0, "Flow_A2B": 92, "Net_B2A": -92, "A_LONG": -87.8169, "A_LATT": 41.84, "B_LONG": -88.9041, "B_LATT": 40.1744 }, "geometry": { "type": "Point", "coordinates": [ -87.8169, 41.84 ] } },
{ "type": "Feature", "properties": { "State_A": "Illinois", "County_A": "Cook County", "GEOID_A": "17031", "State_B": "Illinois", "County_B": "Williamson County", "GEOID_B": "17199", "Flow_B2A": 0, "Flow_A2B": 85, "Net_B2A": -85, "A_LONG": -87.8169, "A_LATT": 41.84, "B_LONG": -88.93, "B_LATT": 37.7304 }, "geometry": { "type": "Point", "coordinates": [ -87.8169, 41.84 ] } },
{ "type": "Feature", "properties": { "State_A": "Illinois", "County_A": "Cook County", "GEOID_A": "17031", "State_B": "Illinois", "County_B": "Lake County", "GEOID_B": "17097", "Flow_B2A": 9789, "Flow_A2B": 9865, "Net_B2A": -76, "A_LONG": -87.8169, "A_LATT": 41.84, "B_LONG": -88.0038, "B_LATT": 42.3232 }, "geometry": { "type": "Point", "coordinates": [ -87.8169, 41.84 ] } },
{ "type": "Feature", "properties": { "State_A": "Illinois", "County_A": "Cook County", "GEOID_A": "17031", "State_B": "Illinois", "County_B": "Saline County", "GEOID_B": "17165", "Flow_B2A": 0, "Flow_A2B": 70, "Net_B2A": -70, "A_LONG": -87.8169, "A_LATT": 41.84, "B_LONG": -88.5412, "B_LATT": 37.7533 }, "geometry": { "type": "Point", "coordinates": [ -87.8169, 41.84 ] } },
{ "type": "Feature", "properties": { "State_A": "Illinois", "County_A": "Cook County", "GEOID_A": "17031", "State_B": "Illinois", "County_B": "Christian County", "GEOID_B": "17021", "Flow_B2A": 31, "Flow_A2B": 86, "Net_B2A": -55, "A_LONG": -87.8169, "A_LATT": 41.84, "B_LONG": -89.2775, "B_LATT": 39.5459 }, "geometry": { "type": "Point", "coordinates": [ -87.8169, 41.84 ] } },
{ "type": "Feature", "properties": { "State_A": "Illinois", "County_A": "Cook County", "GEOID_A": "17031", "State_B": "Illinois", "County_B": "Stephenson County", "GEOID_B": "17177", "Flow_B2A": 47, "Flow_A2B": 69, "Net_B2A": -22, "A_LONG": -87.8169, "A_LATT": 41.84, "B_LONG": -89.6627, "B_LATT": 42.3517 }, "geometry": { "type": "Point", "coordinates": [ -87.8169, 41.84 ] } },
{ "type": "Feature", "properties": { "State_A": "Illinois", "County_A": "Cook County", "GEOID_A": "17031", "State_B": "Illinois", "County_B": "Pulaski County", "GEOID_B": "17153", "Flow_B2A": 0, "Flow_A2B": 8, "Net_B2A": -8, "A_LONG": -87.8169, "A_LATT": 41.84, "B_LONG": -89.1272, "B_LATT": 37.2227 }, "geometry": { "type": "Point", "coordinates": [ -87.8169, 41.84 ] } },
{ "type": "Feature", "properties": { "State_A": "Illinois", "County_A": "Cook County", "GEOID_A": "17031", "State_B": "Illinois", "County_B": "Ford County", "GEOID_B": "17053", "Flow_B2A": 26, "Flow_A2B": 7, "Net_B2A": 19, "A_LONG": -87.8169, "A_LATT": 41.84, "B_LONG": -88.2232, "B_LATT": 40.5973 }, "geometry": { "type": "Point", "coordinates": [ -87.8169, 41.84 ] } },
{ "type": "Feature", "properties": { "State_A": "Illinois", "County_A": "Cook County", "GEOID_A": "17031", "State_B": "Illinois", "County_B": "Mason County", "GEOID_B": "17125", "Flow_B2A": 31, "Flow_A2B": 7, "Net_B2A": 24, "A_LONG": -87.8169, "A_LATT": 41.84, "B_LONG": -89.9167, "B_LATT": 40.2394 }, "geometry": { "type": "Point", "coordinates": [ -87.8169, 41.84 ] } },
{ "type": "Feature", "properties": { "State_A": "Illinois", "County_A": "Cook County", "GEOID_A": "17031", "State_B": "Illinois", "County_B": "Ogle County", "GEOID_B": "17141", "Flow_B2A": 173, "Flow_A2B": 91, "Net_B2A": 82, "A_LONG": -87.8169, "A_LATT": 41.84, "B_LONG": -89.3204, "B_LATT": 42.0426 }, "geometry": { "type": "Point", "coordinates": [ -87.8169, 41.84 ] } },
{ "type": "Feature", "properties": { "State_A": "Illinois", "County_A": "Cook County", "GEOID_A": "17031", "State_B": "Illinois", "County_B": "Kendall County", "GEOID_B": "17093", "Flow_B2A": 352, "Flow_A2B": 84, "Net_B2A": 268, "A_LONG": -87.8169, "A_LATT": 41.84, "B_LONG": -88.4289, "B_LATT": 41.5909 }, "geometry": { "type": "Point", "coordinates": [ -87.8169, 41.84 ] } }
]
}
